[{ "name": "Nova Dumbleton", "city": "Nuremberg", "lat": 50.775555, "lng": 6.083611 },
{ "name": "Deann Mcgonigal", "city": "Braunschweig", "lat": 48.366512, "lng": 10.894446 },
{ "name": "Shawna Astudillo", "city": "Freiburg", "lat": 48.758339, "lng": 8.243008 },
{ "name": "Sheryll Hayes", "city": "Munich", "lat": 51.099998, "lng": 7.116667 },
{ "name": "Kirby Mcgahey", "city": "Gerolzhofen", "lat": 52.520008, "lng": 13.404954 },
{ "name": "Kattie Hays", "city": "Grimma", "lat": 52.021111, "lng": 8.534722 },
{ "name": "Anh Easter", "city": "Krefeld", "lat": 51.481846, "lng": 7.216236 },
{ "name": "Cythia Rew", "city": "Osnabrück", "lat": 50.733334, "lng": 7.1 },
{ "name": "Abe Huskins", "city": "Kiel", "lat": 51.524723, "lng": 6.922778 },
{ "name": "Joannie Harshaw", "city": "Solingen", "lat": 52.266666, "lng": 10.516667 },
{ "name": "Latanya Ogle", "city": "Göttingen", "lat": 53.073635, "lng": 8.806422 },
{ "name": "Indira Splawn", "city": "Herne", "lat": 53.549999, "lng": 8.583333 },
{ "name": "Nanci Traynor", "city": "Gelsenkirchen", "lat": 50.833332, "lng": 12.916667 },
{ "name": "Melisa Dagostino", "city": "Reutlingen", "lat": 50.935173, "lng": 6.953101 },
{ "name": "Johnetta Caperton", "city": "Windischletten", "lat": 50.933594, "lng": 6.961899 },
{ "name": "Josphine Isley", "city": "Tübingen", "lat": 51.75631, "lng": 14.332868 },
{ "name": "Terra Suda", "city": "Cologne", "lat": 49.878708, "lng": 8.646927 },
{ "name": "Allegra Aburto", "city": "Wuppertal", "lat": 51.514244, "lng": 7.468429 },
{ "name": "Brain Haubert", "city": "Hamburg", "lat": 51.050407, "lng": 13.737262 },
{ "name": "Leann Colwell", "city": "Wiesbaden", "lat": 51.435146, "lng": 6.762692 },
{ "name": "Sasha Mcnaught", "city": "Erfurt", "lat": 51.233334, "lng": 6.783333 },
{ "name": "Merle Rees", "city": "Magdeburg", "lat": 50.983334, "lng": 11.033333 },
{ "name": "Yetta Trembath", "city": "Bottrop", "lat": 49.583332, "lng": 11.016667 },
{ "name": "Rosario Tisby", "city": "Karlsruhe", "lat": 51.450832, "lng": 7.013056 },
{ "name": "Jody Koning", "city": "Luckenwalde", "lat": 50.110924, "lng": 8.682127 },
{ "name": "Janeen Araiza", "city": "Heilbronn", "lat": 47.997791, "lng": 7.842609 },
{ "name": "Scotty Vierling", "city": "Salzgitter", "lat": 50.555809, "lng": 9.680845 },
{ "name": "Reggie Hallinan", "city": "Offenbach am Main", "lat": 49.466667, "lng": 11 },
{ "name": "Carleen Pankow", "city": "Cottbus", "lat": 51.516666, "lng": 7.1 },
{ "name": "Ruthann Cienfuegos", "city": "Heidelberg Old City", "lat": 50.884842, "lng": 12.079811 },
{ "name": "Blythe Sitzman", "city": "Weimar", "lat": 49.897511, "lng": 10.351524 },
{ "name": "Bernardine Loggins", "city": "Grafenwöhr", "lat": 51.545483, "lng": 9.905548 },
{ "name": "Hobert Linen", "city": "Fürth", "lat": 49.713936, "lng": 11.909094 },
{ "name": "Santina Lax", "city": "Hildesheim", "lat": 51.236443, "lng": 12.720231 },
{ "name": "Ezequiel Ruppe", "city": "Lindau", "lat": 51.366669, "lng": 7.483333 },
{ "name": "Lupe Klink", "city": "Kassel", "lat": 51.483334, "lng": 11.966667 },
{ "name": "Iluminada Deniz", "city": "Saarbrücken", "lat": 53.551086, "lng": 9.993682 },
{ "name": "Riley Rolph", "city": "Hagen", "lat": 51.683334, "lng": 7.816667 },
{ "name": "Artie Mollica", "city": "Kalbach", "lat": 52.37392, "lng": 9.735603 },
{ "name": "Lana Bro", "city": "Mönchengladbach", "lat": 49.39875, "lng": 8.672434 },
{ "name": "Cherilyn Yamanaka", "city": "Leipzig", "lat": 49.150002, "lng": 9.2166 },
{ "name": "Vonda Mcmurtrie", "city": "Hanover", "lat": 51.549999, "lng": 7.216667 },
{ "name": "Cicely Mccrary", "city": "Bergisch Gladbach", "lat": 51.167858, "lng": 6.935225 },
{ "name": "Tarsha Entwistle", "city": "Ingolstadt", "lat": 52.150002, "lng": 9.95 },
{ "name": "Doria Servantes", "city": "Aachen", "lat": 48.766666, "lng": 11.433333 },
{ "name": "Verdell Ricker", "city": "Augsburg", "lat": 50.927223, "lng": 11.586111 },
{ "name": "Madelaine Meinke", "city": "Regensburg", "lat": 50.437061, "lng": 9.639988 },
{ "name": "Cherrie Merry", "city": "Remscheid", "lat": 49.006889, "lng": 8.403653 },
{ "name": "Loretta Hartgrove", "city": "Paderborn", "lat": 51.312801, "lng": 9.481544 },
{ "name": "Cyrus Jefferies", "city": "Lübeck", "lat": 54.323334, "lng": 10.139444 },
{ "name": "Arlyne Resendes", "city": "Erlangen", "lat": 50.360023, "lng": 7.589907 },
{ "name": "Jefferey Cheadle", "city": "Jena", "lat": 51.333332, "lng": 6.566667 },
{ "name": "Tiara Gaydos", "city": "Oldenburg", "lat": 51.340199, "lng": 12.360103 },
{ "name": "Anamaria Barna", "city": "Hilden", "lat": 51.033333, "lng": 6.983333 },
{ "name": "Len Broaden", "city": "Mülheim an der Ruhr", "lat": 47.5574, "lng": 9.707209 },
{ "name": "Eartha Slough", "city": "Dortmund", "lat": 53.86972, "lng": 10.686389 },
{ "name": "Zelma Hammersley", "city": "Berlin", "lat": 52.090389, "lng": 13.163691 },
{ "name": "Gordon Gennaro", "city": "Darmstadt", "lat": 49.477409, "lng": 8.44518 },
{ "name": "Celine Angstadt", "city": "Baden-Baden", "lat": 52.133331, "lng": 11.616667 },
{ "name": "Keneth Mcneece", "city": "Hamm", "lat": 49.992863, "lng": 8.247253 },
{ "name": "Lakita Min", "city": "Bielefeld", "lat": 49.488888, "lng": 8.469167 },
{ "name": "Burl Gonzales", "city": "Siegen", "lat": 51.164703, "lng": 13.496017 },
{ "name": "Joane Rorick", "city": "Frankfurt", "lat": 51.451603, "lng": 6.640815 },
{ "name": "Zachariah Whidbee", "city": "Trier", "lat": 51.200001, "lng": 6.433333 },
{ "name": "Vicente Citizen", "city": "Essen", "lat": 51.433334, "lng": 6.883333 },
{ "name": "Alyce Schiefelbein", "city": "Duisburg", "lat": 48.137154, "lng": 11.576124 },
{ "name": "Leopoldo Oxendine", "city": "Meissen", "lat": 51.961563, "lng": 7.628202 },
{ "name": "Osvaldo Zubia", "city": "Oranienburg", "lat": 51.200001, "lng": 6.7 },
{ "name": "Tyler Kreidler", "city": "Bremerhaven", "lat": 49.460983, "lng": 11.061859 },
{ "name": "Ilda Mcginness", "city": "Bremen", "lat": 50.099998, "lng": 8.8 },
{ "name": "Su Domer", "city": "Stuttgart", "lat": 53.14389, "lng": 8.213889 },
{ "name": "Doyle Wingfield", "city": "Ulm", "lat": 52.753727, "lng": 13.236681 },
{ "name": "Candie Mcgaughy", "city": "Leverkusen", "lat": 52.283333, "lng": 8.05 },
{ "name": "Devorah Simonsen", "city": "Fulda", "lat": 51.716667, "lng": 8.766667 },
{ "name": "Emmie Higbee", "city": "Bochum", "lat": 48.901943, "lng": 8.716667 },
{ "name": "Elvin Marcotte", "city": "Münster", "lat": 51.584999, "lng": 7.161944 },
{ "name": "Cedric Setzer", "city": "Mainz", "lat": 49.013432, "lng": 12.101624 },
{ "name": "Odilia Orwig", "city": "Würzburg", "lat": 51.183334, "lng": 7.2 },
{ "name": "Eldon Katzman", "city": "Halle (Saale)", "lat": 48.483334, "lng": 9.216667 },
{ "name": "Lou Baldonado", "city": "Wernigerode", "lat": 49.233334, "lng": 7 },
{ "name": "Jerilyn Tiano", "city": "Recklinghausen", "lat": 52.150002, "lng": 10.333333 },
{ "name": "Duncan Patchen", "city": "Ludwigshafen", "lat": 50.883331, "lng": 8.016667 },
{ "name": "Tabetha Sagers", "city": "Düsseldorf", "lat": 51.170208, "lng": 7.083141 },
{ "name": "Donette Brandenburg", "city": "Moers", "lat": 48.783333, "lng": 9.183333 },
{ "name": "Angelo Walrath", "city": "Pforzheim", "lat": 49.75, "lng": 6.633333 },
{ "name": "Bao Springfield", "city": "Dresden", "lat": 48.521637, "lng": 9.057645 },
{ "name": "Lucila Ladson", "city": "Neuss", "lat": 48.400002, "lng": 9.983333 },
{ "name": "Desire Mousseau", "city": "Wolfsburg", "lat": 50.979492, "lng": 11.323544 },
{ "name": "Angelyn Whitlock", "city": "Gera", "lat": 51.837635, "lng": 10.783489 },
{ "name": "Sharleen Delpino", "city": "Cologne", "lat": 50.078217, "lng": 8.239761 },
{ "name": "Kenia Lugar", "city": "Koblenz", "lat": 49.996677, "lng": 10.994418 },
{ "name": "Lida Crosbie", "city": "Bonn", "lat": 52.427547, "lng": 10.78042 },
{ "name": "Grazyna Butterfield", "city": "Chemnitz", "lat": 51.256214, "lng": 7.150764 },
{ "name": "Arnold Mckinsey","city": "Mannheim", "lat": 49.783333, "lng": 9.933333 }]
